[
 {
   "Sr. No.": 1,
   "State": "Madhya Pradesh",
   "District": "Shujalpur",
   "Tehsil": "Shajapur",
   "Village Name": "Alaumrod",
   "Lattitude": 23.375565,
   "Longitude": 76.311872,
   "Altitude (m)": 469,
   "Min": 23,
   "Max": 76
 },
 {
   "Sr. No.": 2,
   "State": "Madhya Pradesh",
   "District": "Shujalpur",
   "Tehsil": "Shajapur",
   "Village Name": "Mewasa",
   "Lattitude": 23.434887,
   "Longitude": 76.365176,
   "Altitude (m)": 458,
   "Min": 23,
   "Max": 76
 },
 {
   "Sr. No.": 3,
   "State": "Madhya Pradesh",
   "District": "Dewas",
   "Tehsil": "Dewas",
   "Village Name": "Khokariya",
   "Lattitude": 22.910968,
   "Longitude": 76.195762,
   "Altitude (m)": 506,
   "Min": 22,
   "Max": 76
 },
 {
   "Sr. No.": 4,
   "State": "Madhya Pradesh",
   "District": "Dewas",
   "Tehsil": "Dewas",
   "Village Name": "Rampura",
   "Lattitude": 22.5524,
   "Longitude": 76.119,
   "Altitude (m)": 347,
   "Min": 22,
   "Max": 76
 },
 {
   "Sr. No.": 5,
   "State": "Madhya Pradesh",
   "District": "Dewas",
   "Tehsil": "Dewas",
   "Village Name": "Bhatkhedi",
   "Lattitude": 22.892335,
   "Longitude": 76.216045,
   "Altitude (m)": 510,
   "Min": 22,
   "Max": 76
 },
 {
   "Sr. No.": 6,
   "State": "Madhya Pradesh",
   "District": "Dewas",
   "Tehsil": "Dewas",
   "Village Name": "Barotha",
   "Lattitude": 22.874945,
   "Longitude": 76.18417,
   "Altitude (m)": 522,
   "Min": 22,
   "Max": 76
 },
 {
   "Sr. No.": 7,
   "State": "Madhya Pradesh",
   "District": "Shajapur ",
   "Tehsil": "Gulana",
   "Village Name": "Ghunsi",
   "Lattitude": 23.330224,
   "Longitude": 76.418706,
   "Altitude (m)": 443,
   "Min": 23,
   "Max": 76
 },
 {
   "Sr. No.": 8,
   "State": "Madhya Pradesh",
   "District": "Shajapur ",
   "Tehsil": "Shajapur",
   "Village Name": "Abhypur",
   "Lattitude": 23.492029,
   "Longitude": 76.380244,
   "Altitude (m)": 442,
   "Min": 23,
   "Max": 76
 },
 {
   "Sr. No.": 9,
   "State": "Madhya Pradesh",
   "District": "Shajapur ",
   "Tehsil": "Shajapur",
   "Village Name": "Bharad",
   "Lattitude": 23.482053,
   "Longitude": 76.301128,
   "Altitude (m)": 440,
   "Min": 23,
   "Max": 76
 },
 {
   "Sr. No.": 10,
   "State": "Madhya Pradesh",
   "District": "Shajapur ",
   "Tehsil": "Shajapur",
   "Village Name": "Lahori",
   "Lattitude": 23.377578,
   "Longitude": 76.376751,
   "Altitude (m)": 452,
   "Min": 23,
   "Max": 76
 },
 {
   "Sr. No.": 11,
   "State": "Madhya Pradesh",
   "District": "Shajapur ",
   "Tehsil": "Shajapur",
   "Village Name": "Bercha",
   "Lattitude": 23.418514,
   "Longitude": 76.288228,
   "Altitude (m)": 450,
   "Min": 23,
   "Max": 76
 },
 {
   "Sr. No.": 12,
   "State": "Madhya Pradesh",
   "District": "Shajapur ",
   "Tehsil": "Gulana",
   "Village Name": "Gulana",
   "Lattitude": 23.43359,
   "Longitude": 76.466582,
   "Altitude (m)": 441,
   "Min": 23,
   "Max": 76
 },
 {
   "Sr. No.": 13,
   "State": "Madhya Pradesh",
   "District": "Shajapur ",
   "Tehsil": "Shajapur",
   "Village Name": "Gopipur",
   "Lattitude": 23.512464,
   "Longitude": 76.302937,
   "Altitude (m)": 439,
   "Min": 23,
   "Max": 76
 },
 {
   "Sr. No.": 14,
   "State": "Madhya Pradesh",
   "District": "Dewas",
   "Tehsil": "Sonkatch",
   "Village Name": "Sonkatch",
   "Lattitude": 22.972935,
   "Longitude": 76.346901,
   "Altitude (m)": 477,
   "Min": 22,
   "Max": 76
 },
 {
   "Sr. No.": 15,
   "State": "Madhya Pradesh",
   "District": "Dewas",
   "Tehsil": "Dewas",
   "Village Name": "Mahudi",
   "Lattitude": 22.946369,
   "Longitude": 76.233428,
   "Altitude (m)": 489,
   "Min": 22,
   "Max": 76
 },
 {
   "Sr. No.": 16,
   "State": "Madhya Pradesh",
   "District": "Dewas",
   "Tehsil": "Dewas",
   "Village Name": "Jalodiya",
   "Lattitude": 22.889147,
   "Longitude": 76.346362,
   "Altitude (m)": 487,
   "Min": 22,
   "Max": 76
 },
 {
   "Sr. No.": 17,
   "State": "Madhya Pradesh",
   "District": "Dewas",
   "Tehsil": "Dewas",
   "Village Name": "Siroliya",
   "Lattitude": 22.868474,
   "Longitude": 76.135619,
   "Altitude (m)": 533,
   "Min": 22,
   "Max": 76
 },
 {
   "Sr. No.": 18,
   "State": "Madhya Pradesh",
   "District": "Shajapur ",
   "Tehsil": "Shajapur",
   "Village Name": "Karedi",
   "Lattitude": 23.415686,
   "Longitude": 76.198659,
   "Altitude (m)": 445,
   "Min": 23,
   "Max": 76
 },
 {
   "Sr. No.": 19,
   "State": "Uttarakhand",
   "District": "Haridwar",
   "Tehsil": "Roorkee",
   "Village Name": "Belda",
   "Lattitude": 29.888591,
   "Longitude": 77.952449,
   "Altitude (m)": 258,
   "Min": 29,
   "Max": 77
 },
 {
   "Sr. No.": 20,
   "State": "Uttarakhand",
   "District": "Haridwar",
   "Tehsil": "Roorkee",
   "Village Name": "Dhandhedi khwazgipur",
   "Lattitude": 29.87358,
   "Longitude": 77.959588,
   "Altitude (m)": 257,
   "Min": 29,
   "Max": 77
 },
 {
   "Sr. No.": 21,
   "State": "Uttarakhand",
   "District": "Haridwar",
   "Tehsil": "Roorkee",
   "Village Name": "Thaska",
   "Lattitude": 29.770497,
   "Longitude": 77.834941,
   "Altitude (m)": 259,
   "Min": 29,
   "Max": 77
 },
 {
   "Sr. No.": 22,
   "State": "Uttarakhand",
   "District": "Haridwar",
   "Tehsil": "Haridwar",
   "Village Name": "Ekar",
   "Lattitude": 29.861391,
   "Longitude": 77.877746,
   "Altitude (m)": 266,
   "Min": 29,
   "Max": 77
 },
 {
   "Sr. No.": 23,
   "State": "Uttarakhand",
   "District": "Haridwar",
   "Tehsil": "Haridwar",
   "Village Name": "Govindpur",
   "Lattitude": 29.932202,
   "Longitude": 78.039515,
   "Altitude (m)": 278,
   "Min": 29,
   "Max": 78
 },
 {
   "Sr. No.": 24,
   "State": "Uttarakhand",
   "District": "Haridwar",
   "Tehsil": "Laksar",
   "Village Name": "Mundakhera",
   "Lattitude": 29.726178,
   "Longitude": 78.054495,
   "Altitude (m)": 235,
   "Min": 29,
   "Max": 78
 },
 {
   "Sr. No.": 25,
   "State": "Uttarakhand",
   "District": "Haridwar",
   "Tehsil": "Laksar",
   "Village Name": "Laksar",
   "Lattitude": 29.957989,
   "Longitude": 78.067607,
   "Altitude (m)": 305,
   "Min": 29,
   "Max": 78
 },
 {
   "Sr. No.": 26,
   "State": "Uttarakhand",
   "District": "Haridwar",
   "Tehsil": "Laksar",
   "Village Name": "Akodha",
   "Lattitude": 29.718658,
   "Longitude": 78.073751,
   "Altitude (m)": 234,
   "Min": 29,
   "Max": 78
 },
 {
   "Sr. No.": 27,
   "State": "Uttarakhand",
   "District": "Haridwar",
   "Tehsil": "Haridwar",
   "Village Name": "Missarpur",
   "Lattitude": 29.885351,
   "Longitude": 78.135064,
   "Altitude (m)": 269,
   "Min": 29,
   "Max": 78
 },
 {
   "Sr. No.": 28,
   "State": "Uttarakhand",
   "District": "Haridwar",
   "Tehsil": "Haridwar",
   "Village Name": "Sultanpur",
   "Lattitude": 29.756083,
   "Longitude": 78.105506,
   "Altitude (m)": 243,
   "Min": 29,
   "Max": 78
 },
 {
   "Sr. No.": 29,
   "State": "Uttarakhand",
   "District": "Haridwar",
   "Tehsil": "Haridwar",
   "Village Name": "Ruhalki",
   "Lattitude": 29.9063,
   "Longitude": 78.042539,
   "Altitude (m)": 269,
   "Min": 29,
   "Max": 78
 },
 {
   "Sr. No.": 30,
   "State": "Uttarakhand",
   "District": "Haridwar",
   "Tehsil": "Haridwar",
   "Village Name": "Ahmedpur",
   "Lattitude": 29.633278,
   "Longitude": 77.866027,
   "Altitude (m)": 262,
   "Min": 29,
   "Max": 77
 },
 {
   "Sr. No.": 31,
   "State": "Uttarakhand",
   "District": "Haridwar",
   "Tehsil": "Haridwar",
   "Village Name": "Alipur Ibhrahimpur",
   "Lattitude": 29.90582,
   "Longitude": 78.073268,
   "Altitude (m)": 278,
   "Min": 29,
   "Max": 78
 },
 {
   "Sr. No.": 32,
   "State": "Uttarakhand",
   "District": "Haridwar",
   "Tehsil": "Roorkee",
   "Village Name": "Roorkee",
   "Lattitude": 29.854263,
   "Longitude": 77.888,
   "Altitude (m)": 274,
   "Min": 89,
   "Max": 77
 },
 {
   "Sr. No.": 33,
   "State": "Uttarakhand",
   "District": "Haridwar",
   "Tehsil": "Roorkee",
   "Village Name": "Majri",
   "Lattitude": 29.702045,
   "Longitude": 78.016685,
   "Altitude (m)": 235,
   "Min": 29,
   "Max": 78
 },
 {
   "Sr. No.": 34,
   "State": "Uttarakhand",
   "District": "Haridwar",
   "Tehsil": "Roorkee",
   "Village Name": "Bajuheri",
   "Lattitude": 29.901945,
   "Longitude": 77.92353,
   "Altitude (m)": 269,
   "Min": 29,
   "Max": 77
 },
 {
   "Sr. No.": 35,
   "State": "Uttarakhand",
   "District": "Haridwar",
   "Tehsil": "Roorkee",
   "Village Name": "Sohalpur",
   "Lattitude": 29.964902,
   "Longitude": 77.915317,
   "Altitude (m)": 283,
   "Min": 29,
   "Max": 77
 },
 {
   "Sr. No.": 36,
   "State": "Uttarakhand",
   "District": "Haridwar",
   "Tehsil": "Bhagwanpur",
   "Village Name": "Mashi kallan",
   "Lattitude": 29.941096,
   "Longitude": 77.812426,
   "Altitude (m)": 279,
   "Min": 29,
   "Max": 77
 },
 {
   "Sr. No.": 37,
   "State": "Uttarakhand",
   "District": "Haridwar",
   "Tehsil": "Bhagwanpur",
   "Village Name": "Nawada",
   "Lattitude": 30.005691,
   "Longitude": 77.652181,
   "Altitude (m)": 284,
   "Min": 30,
   "Max": 78
 },
 {
   "Sr. No.": 38,
   "State": "Uttarakhand",
   "District": "Haridwar",
   "Tehsil": "Laksar",
   "Village Name": "Maharajpur Kallan",
   "Lattitude": 29.679243,
   "Longitude": 78.090627,
   "Altitude (m)": 233,
   "Min": 29,
   "Max": 78
 },
 {
   "Sr. No.": 39,
   "State": "Chandigarh",
   "District": "Mohali",
   "Tehsil": "",
   "Village Name": "Gigamajra",
   "Lattitude": 30.361742,
   "Longitude": 76.401481,
   "Altitude (m)": 258,
   "Min": 30,
   "Max": 76
 },
 {
   "Sr. No.": 40,
   "State": "Punjab",
   "District": "Moga",
   "Tehsil": "",
   "Village Name": "Indergarh",
   "Lattitude": 30.55341,
   "Longitude": 75.174253,
   "Altitude (m)": 217,
   "Min": 30,
   "Max": 76
 },
 {
   "Sr. No.": 41,
   "State": "Punjab",
   "District": "Ludhiana",
   "Tehsil": "",
   "Village Name": "Mushkabad",
   "Lattitude": 30.525069,
   "Longitude": 76.135812,
   "Altitude (m)": 258,
   "Min": 30,
   "Max": 76
 },
 {
   "Sr. No.": 42,
   "State": "Punjab",
   "District": "Fatehgarh Sahib",
   "Tehsil": "",
   "Village Name": "Kaulgarh",
   "Lattitude": 30.365353,
   "Longitude": 76.101007,
   "Altitude (m)": 248,
   "Min": 30,
   "Max": 76
 },
 {
   "Sr. No.": 43,
   "State": "Madhya Pradesh",
   "District": "Barwani",
   "Tehsil": "",
   "Village Name": "",
   "Lattitude": 22.038071,
   "Longitude": 74.867111,
   "Altitude (m)": 160,
   "Min": 22,
   "Max": 74
 },
 {
   "Sr. No.": 44,
   "State": "Madhya Pradesh",
   "District": "Dhar",
   "Tehsil": "",
   "Village Name": "",
   "Lattitude": 22.231513,
   "Longitude": 75.05826,
   "Altitude (m)": 201,
   "Min": 22,
   "Max": 75
 },
 {
   "Sr. No.": 45,
   "State": "Gujarat",
   "District": "Vadodara",
   "Tehsil": "",
   "Village Name": "",
   "Lattitude": 22.367145,
   "Longitude": 73.091165,
   "Altitude (m)": 38,
   "Min": 22,
   "Max": 73
 },
 {
   "Sr. No.": 46,
   "State": "Gujarat",
   "District": "Anand",
   "Tehsil": "",
   "Village Name": "",
   "Lattitude": 22.432266,
   "Longitude": 72.773567,
   "Altitude (m)": 28,
   "Min": 22,
   "Max": 72
 },
 {
   "Sr. No.": 47,
   "State": "Gujarat",
   "District": "Vishvanathpura",
   "Tehsil": "",
   "Village Name": "",
   "Lattitude": 22.935414,
   "Longitude": 73.119899,
   "Altitude (m)": 80,
   "Min": 22,
   "Max": 73
 },
 {
   "Sr. No.": 48,
   "State": "Gujarat",
   "District": "Salod",
   "Tehsil": "",
   "Village Name": "",
   "Lattitude": 22.955228,
   "Longitude": 73.092743,
   "Altitude (m)": 68,
   "Min": 22,
   "Max": 73
 },
 {
   "Sr. No.": 49,
   "State": "Maharashtra",
   "District": "Nashik",
   "Tehsil": "Nifad",
   "Village Name": "",
   "Lattitude": 20.079965,
   "Longitude": 74.109314,
   "Altitude (m)": 550,
   "Min": 20,
   "Max": 74
 },
 {
   "Sr. No.": 50,
   "State": "Maharashtra",
   "District": "Nashik",
   "Tehsil": "Pimplagaon",
   "Village Name": "",
   "Lattitude": 20.169968,
   "Longitude": 73.987379,
   "Altitude (m)": 585,
   "Min": 20,
   "Max": 73
 },
 {
   "Sr. No.": 51,
   "State": "Maharashtra",
   "District": "Nashik",
   "Tehsil": "Sakore",
   "Village Name": "",
   "Lattitude": 20.354835,
   "Longitude": 74.681027,
   "Altitude (m)": 470,
   "Min": 20,
   "Max": 74
 },
 {
   "Sr. No.": 52,
   "State": "Maharashtra",
   "District": "Sangli",
   "Tehsil": "Jat",
   "Village Name": "",
   "Lattitude": 17.049996,
   "Longitude": 75.213501,
   "Altitude (m)": 672,
   "Min": 17,
   "Max": 75
 },
 {
   "Sr. No.": 53,
   "State": "Maharashtra",
   "District": "Sangli",
   "Tehsil": "Savlaj",
   "Village Name": "",
   "Lattitude": 17.110626,
   "Longitude": 74.765892,
   "Altitude (m)": 698,
   "Min": 17,
   "Max": 74
 },
 {
   "Sr. No.": 54,
   "State": "Maharashtra",
   "District": "Sangli",
   "Tehsil": "Gardi",
   "Village Name": "",
   "Lattitude": 17.302988,
   "Longitude": 74.540469,
   "Altitude (m)": 697,
   "Min": 17,
   "Max": 74
 },
 {
   "Sr. No.": null,
   "State": "",
   "District": "",
   "Tehsil": "",
   "Village Name": "",
   "Lattitude": null,
   "Longitude": null,
   "Altitude (m)": null,
   "Min": null,
   "Max": null
 }
]